{"type":"FeatureCollection","features":[
	{"type":"Feature","properties":{
		"name":"BI-RUI-001",
		"serialNumber":"051999999991001",
		"status":"1",
		"address":"RODRIGUEZ ARIAS   71 BIS",
		"deviceTypeId":"1",
		"longitude":"-2.944465",
		"latitude":"43.263875"
		},
	"geometry":{"type":"Point","coordinates":[-2.944465,43.2638751]}
	}
	,
	{"type":"Feature","properties":{
		"name":"BI-RUI-004",
		"serialNumber":"051999999991004",
		"status":"1",
		"address":"PLAZA UNAMUNO FAROLA 13",
		"deviceTypeId":"1",
		"longitude":"-2.921691",
		"latitude":"43.258396"
		},
	"geometry":{"type":"Point","coordinates":[-2.921691,43.2583961]}
	}
	,
	{"type":"Feature","properties":{
		"name":"BI-RUI-005",
		"serialNumber":"051999999991005",
		"status":"1",
		"address":"MARIA MUŃOZ FRENTE 2 ",
		"deviceTypeId":"1",
		"longitude":"-2.921992",
		"latitude":"43.257555"
		},
	"geometry":{"type":"Point","coordinates":[-2.921992,43.2575551]}
	}
	,
	{"type":"Feature","properties":{
		"name":"BI-RUI-006",
		"serialNumber":"051999999991006",
		"status":"1",
		"address":"BARRENKALE   7 ",
		"deviceTypeId":"1",
		"longitude":"-2.925136",
		"latitude":"43.256697"
		},
	"geometry":{"type":"Point","coordinates":[-2.925136,43.2566971]}
	}
	,
	{"type":"Feature","properties":{
		"name":"BI-RUI-007",
		"serialNumber":"051999999991007",
		"status":"1",
		"address":"AVENIDA MADARIAGA 3-5",
		"deviceTypeId":"1",
		"longitude":"-2.944399",
		"latitude":"43.271091"
		},
	"geometry":{"type":"Point","coordinates":[-2.944399,43.2710911]}
	}
	,
	{"type":"Feature","properties":{
		"name":"BI-RUI-008",
		"serialNumber":"051999999991008",
		"status":"1",
		"address":"ITURRIBIDE 30",
		"deviceTypeId":"1",
		"longitude":"-2.927927",
		"latitude":"43.262351"
		},
	"geometry":{"type":"Point","coordinates":[-2.927927,43.2623511]}
	}
	,
	{"type":"Feature","properties":{
		"name":"BI-RUI-009",
		"serialNumber":"051999999991009",
		"status":"1",
		"address":"SANTA MARIA 18",
		"deviceTypeId":"1",
		"longitude":"-2.925421",
		"latitude":"43.257746"
		},
	"geometry":{"type":"Point","coordinates":[-2.925421,43.2577461]}
	}
	,
	{"type":"Feature","properties":{
		"name":"BI-RUI-010",
		"serialNumber":"051999999991010",
		"status":"1",
		"address":"BARRENKALE BARRENA 7",
		"deviceTypeId":"1",
		"longitude":"-2.925336",
		"latitude":"43.257225"
		},
	"geometry":{"type":"Point","coordinates":[-2.925336,43.2572251]}
	}
	,
	{"type":"Feature","properties":{
		"name":"BI-RUI-011",
		"serialNumber":"051999999991011",
		"status":"1",
		"address":"JARDINES 6",
		"deviceTypeId":"1",
		"longitude":"-2.925043",
		"latitude":"43.258266"
		},
	"geometry":{"type":"Point","coordinates":[-2.925043,43.2582661]}
	}
	,
	{"type":"Feature","properties":{
		"name":"BI-RUI-013",
		"serialNumber":"051999999991013",
		"status":"2",
		"address":"JARDINES FRENTE 1",
		"deviceTypeId":"1",
		"longitude":"-2.925437",
		"latitude":"43.258179"
		},
	"geometry":{"type":"Point","coordinates":[-2.925437,43.2581791]}
	}
	,
	{"type":"Feature","properties":{
		"name":"BI-RUI-015",
		"serialNumber":"051999999991015",
		"status":"1",
		"address":"DE LA TORRE 5",
		"deviceTypeId":"1",
		"longitude":"-2.924639",
		"latitude":"43.257559"
		},
	"geometry":{"type":"Point","coordinates":[-2.924639,43.2575591]}
	}
	,
	{"type":"Feature","properties":{
		"name":"BI-RUI-016",
		"serialNumber":"051999999991016",
		"status":"2",
		"address":"DE LA TORRE ESQUINA BARRENKALE BARRENA",
		"deviceTypeId":"1",
		"longitude":"-2.925122",
		"latitude":"43.257497"
		},
	"geometry":{"type":"Point","coordinates":[-2.925122,43.2574971]}
	}
	,
	{"type":"Feature","properties":{
		"name":"BI-RUI-017",
		"serialNumber":"051999999991017",
		"status":"1",
		"address":"SOMERA FRENTE 43 ALDAXKA",
		"deviceTypeId":"1",
		"longitude":"-2.9224",
		"latitude":"43.257373"
		},
	"geometry":{"type":"Point","coordinates":[-2.9224,43.2573731]}
	}
	,
	{"type":"Feature","properties":{
		"name":"BI-RUI-019",
		"serialNumber":"051999999991019",
		"status":"1",
		"address":"ZUNZUNEGUI JUNTO BOCA METRO",
		"deviceTypeId":"1",
		"longitude":"-2.948616",
		"latitude":"43.261587"
		},
	"geometry":{"type":"Point","coordinates":[-2.948616,43.2615871]}
	}
	,
	{"type":"Feature","properties":{
		"name":"BI-RUI-020",
		"serialNumber":"051999999991020",
		"status":"1",
		"address":"POZA 48",
		"deviceTypeId":"1",
		"longitude":"-2.942415",
		"latitude":"43.262463"
		},
	"geometry":{"type":"Point","coordinates":[-2.942415,43.2624631]}
	}
	,
	{"type":"Feature","properties":{
		"name":"BI-RUI-021",
		"serialNumber":"051999999991021",
		"status":"1",
		"address":"POZA 53 ",
		"deviceTypeId":"1",
		"longitude":"-2.941606",
		"latitude":"43.262206"
		},
	"geometry":{"type":"Point","coordinates":[-2.941606,43.2622061]}
	}
	,
	{"type":"Feature","properties":{
		"name":"BI-RUI-022",
		"serialNumber":"051999999991022",
		"status":"1",
		"address":"POZA 30",
		"deviceTypeId":"1",
		"longitude":"-2.940446",
		"latitude":"43.262031"
		},
	"geometry":{"type":"Point","coordinates":[-2.940446,43.2620311]}
	}
	,
	{"type":"Feature","properties":{
		"name":"BI-RUI-023",
		"serialNumber":"051999999991023",
		"status":"1",
		"address":"ZARANDOA ESQUINA COLEGIO",
		"deviceTypeId":"1",
		"longitude":"-2.96494",
		"latitude":"43.280629"
		},
	"geometry":{"type":"Point","coordinates":[-2.96494,43.2806291]}
	}
	,
	{"type":"Feature","properties":{
		"name":"BI-RUI-025",
		"serialNumber":"051999999991025",
		"status":"2",
		"address":"PRINCIPE 1",
		"deviceTypeId":"1",
		"longitude":"-2.924567",
		"latitude":"43.261992"
		},
	"geometry":{"type":"Point","coordinates":[-2.924567,43.2619921]}
	}
	,
	{"type":"Feature","properties":{
		"name":"BI-RUI-BR1",
		"serialNumber":"051999999992001",
		"status":"2",
		"address":"Parque Arenal farola",
		"deviceTypeId":"1",
		"longitude":"-2.927927",
		"latitude":"43.262351"
		},
	"geometry":{"type":"Point","coordinates":[-2.9232841,43.2607665]}
	}
	,
	{"type":"Feature","properties":{
		"name":"BI-RUI-BR11",
		"serialNumber":"051999999992011",
		"status":"1",
		"address":"ZABALBIDE CON SANTA CLARA",
		"deviceTypeId":"1",
		"longitude":"-2.912525",
		"latitude":"43.255666"
		},
	"geometry":{"type":"Point","coordinates":[-2.912525,43.2556661]}
	}
	,
	{"type":"Feature","properties":{
		"name":"BI-RUI-BR15",
		"serialNumber":"101692098863992",
		"status":"1",
		"address":"ALAMEDA URQUIJO CON DOCTOR AREILZA",
		"deviceTypeId":"1",
		"longitude":"-2.942425",
		"latitude":"43.261366"
		},
	"geometry":{"type":"Point","coordinates":[-2.942425,43.2613661]}
	}
	,
	{"type":"Feature","properties":{
		"name":"BI-RUI-BR2",
		"serialNumber":"051999999992002",
		"status":"1",
		"address":"FRENTE IGLESIA DE SAN VICENTE (ANTZOKI)",
		"deviceTypeId":"1",
		"longitude":"-2.928264",
		"latitude":"43.263558"
		},
	"geometry":{"type":"Point","coordinates":[-2.928264,43.2635581]}
	}
	,
	{"type":"Feature","properties":{
		"name":"BI-RUI-BR5",
		"serialNumber":"051999999992005",
		"status":"2",
		"address":"VIUDA DE EPALZA FRENTE 11",
		"deviceTypeId":"1",
		"longitude":"-2.923117",
		"latitude":"43.261757"
		},
	"geometry":{"type":"Point","coordinates":[-2.923117,43.2617571]}
	}
	,
	{"type":"Feature","properties":{
		"name":"BI-RUI-BR6",
		"serialNumber":"051999999992006",
		"status":"1",
		"address":"ROTONDA GARAIZAR",
		"deviceTypeId":"1",
		"longitude":"-2.9033",
		"latitude":"43.260261"
		},
	"geometry":{"type":"Point","coordinates":[-2.9033,43.2602611]}
	}
	,
	{"type":"Feature","properties":{
		"name":"BI-RUI-BR7",
		"serialNumber":"051999999992007",
		"status":"2",
		"address":"LOS CAŃOS DEBAJO SOLUCION SUR",
		"deviceTypeId":"1",
		"longitude":"-2.920237",
		"latitude":"43.24661"
		},
	"geometry":{"type":"Point","coordinates":[-2.920237,43.2466101]}
	}
	,
	{"type":"Feature","properties":{
		"name":"BI-RUI-BR8",
		"serialNumber":"051999999992008",
		"status":"1",
		"address":"ZURBARAN CON PARTICULAR DE ZURBARAN",
		"deviceTypeId":"1",
		"longitude":"-2.916145",
		"latitude":"43.263939"
		},
	"geometry":{"type":"Point","coordinates":[-2.916145,43.2639391]}
	}
	,
	{"type":"Feature","properties":{
		"name":"BI-RUI-C001",
		"serialNumber":"051999999993001",
		"status":"1",
		"address":"URIBITARTE 10 (ISOZAKI)",
		"deviceTypeId":"1",
		"longitude":"-2.928951",
		"latitude":"43.26524"
		},
	"geometry":{"type":"Point","coordinates":[-2.928951,43.2652401]}
	}
	,
	{"type":"Feature","properties":{
		"name":"BI-RUI-C002",
		"serialNumber":"051999999993002",
		"status":"1",
		"address":"URIBITARTE 6",
		"deviceTypeId":"1",
		"longitude":"-2.927694",
		"latitude":"43.264163"
		},
	"geometry":{"type":"Point","coordinates":[-2.927694,43.2641631]}
	}
	,
	{"type":"Feature","properties":{
		"name":"BI-RUI-C003",
		"serialNumber":"051999999993003",
		"status":"1",
		"address":"MUELLE RIPA (RIA)",
		"deviceTypeId":"1",
		"longitude":"-2.924641",
		"latitude":"43.261251"
		},
	"geometry":{"type":"Point","coordinates":[-2.924641,43.2612511]}
	}
	,
	{"type":"Feature","properties":{
		"name":"BI-RUI-C004",
		"serialNumber":"051999999993004",
		"status":"1",
		"address":"ESCALINATA DE URIBITARTE (S. VICENTE)",
		"deviceTypeId":"1",
		"longitude":"-2.927887",
		"latitude":"43.264189"
		},
	"geometry":{"type":"Point","coordinates":[-2.927887,43.2641891]}
	}
	,
	{"type":"Feature","properties":{
		"name":"BI-RUI-C005",
		"serialNumber":"259962996275344",
		"status":"1",
		"address":"SOMERA 8",
		"deviceTypeId":"1",
		"longitude":"-2.922789",
		"latitude":"43.256406"
		},
	"geometry":{"type":"Point","coordinates":[-2.922789,43.2564061]}
	}
	,
	{"type":"Feature","properties":{
		"name":"BI-RUI-C006",
		"serialNumber":"051999999993006",
		"status":"2",
		"address":"VIUDA DE EPALZA 3",
		"deviceTypeId":"1",
		"longitude":"-2.922792",
		"latitude":"43.261024"
		},
	"geometry":{"type":"Point","coordinates":[-2.922792,43.2610241]}
	}
	,
	{"type":"Feature","properties":{
		"name":"BI-RUI-C008",
		"serialNumber":"051999999993008",
		"status":"2",
		"address":"RIPA 5",
		"deviceTypeId":"1",
		"longitude":"-2.924745",
		"latitude":"43.261605"
		},
	"geometry":{"type":"Point","coordinates":[-2.924745,43.2616051]}
	}
	,
	{"type":"Feature","properties":{
		"name":"BI-RUI-C009",
		"serialNumber":"051999999993009",
		"status":"2",
		"address":"SOMERA 39",
		"deviceTypeId":"1",
		"longitude":"-2.922527",
		"latitude":"43.256988"
		},
	"geometry":{"type":"Point","coordinates":[-2.922527,43.2569881]}
	}
	,
	{"type":"Feature","properties":{
		"name":"BI-RUI-C010",
		"serialNumber":"051999999993010",
		"status":"1",
		"address":"ARBOLANTXA FRENTE 6",
		"deviceTypeId":"1",
		"longitude":"-2.928447",
		"latitude":"43.264406"
		},
	"geometry":{"type":"Point","coordinates":[-2.928447,43.2644061]}
	}
	,
	{"type":"Feature","properties":{
		"name":"BI-RUI-C011",
		"serialNumber":"4720187165580",
		"status":"1",
		"address":"Jardines de Albia (frente a fuente)",
		"deviceTypeId":"1",
		"longitude":"-2.928189",
		"latitude":"43.262887"
		},
	"geometry":{"type":"Point","coordinates":[-2.928189,43.2628871]}
	}
	,
	{"type":"Feature","properties":{
		"name":"BI-RUI-C012",
		"serialNumber":"335025556364",
		"status":"2",
		"address":"Ibańez de Bilbao (frente a Azkena)",
		"deviceTypeId":"1",
		"longitude":"-2.929862",
		"latitude":"43.263619"
		},
	"geometry":{"type":"Point","coordinates":[-2.929862,43.2636191]}
	}
	,
	{"type":"Feature","properties":{
		"name":"BI-RUI-C013",
		"serialNumber":"93385137277376",
		"status":"1",
		"address":"Colón de Larreategui 5",
		"deviceTypeId":"1",
		"longitude":"-2.92688",
		"latitude":"43.262285"
		},
	"geometry":{"type":"Point","coordinates":[-2.92688,43.2622851]}
	}
	,
	{"type":"Feature","properties":{
		"name":"BI-RUI-C014",
		"serialNumber":"92672527453068",
		"status":"1",
		"address":"Iparraguirre 16",
		"deviceTypeId":"1",
		"longitude":"-2.935306",
		"latitude":"43.266038"
		},
	"geometry":{"type":"Point","coordinates":[-2.935306,43.2660381]}
	}
	,
	{"type":"Feature","properties":{
		"name":"BI-RUI-C015",
		"serialNumber":"62624880565532",
		"status":"1",
		"address":"Juan de Ajuriaguerra 14",
		"deviceTypeId":"1",
		"longitude":"-2.93266",
		"latitude":"43.26567"
		},
	"geometry":{"type":"Point","coordinates":[-2.93266,43.2656701]}
	}
	,
	{"type":"Feature","properties":{
		"name":"BI-RUI-C016",
		"serialNumber":"110281893366668",
		"status":"1",
		"address":"Diputación 4",
		"deviceTypeId":"1",
		"longitude":"-2.93203",
		"latitude":"43.263171"
		},
	"geometry":{"type":"Point","coordinates":[-2.93203,43.2631711]}
	}
	,
	{"type":"Feature","properties":{
		"name":"BI-RUI-C017",
		"serialNumber":"88213805262484",
		"status":"1",
		"address":"Berastegui 4",
		"deviceTypeId":"1",
		"longitude":"-2.927927",
		"latitude":"43.262351"
		},
	"geometry":{"type":"Point","coordinates":[-2.927927,43.2623511]}
	}
	,
	{"type":"Feature","properties":{
		"name":"BI-RUI-C018",
		"serialNumber":"171837364652940",
		"status":"1",
		"address":"Ledesma 6",
		"deviceTypeId":"1",
		"longitude":"-2.927146",
		"latitude":"43.261879"
		},
	"geometry":{"type":"Point","coordinates":[-2.927146,43.2618791]}
	}
	,
	{"type":"Feature","properties":{
		"name":"BI-RUI-C019",
		"serialNumber":"83885024365452",
		"status":"1",
		"address":"Ledesma 7",
		"deviceTypeId":"1",
		"longitude":"-2.928776",
		"latitude":"43.262244"
		},
	"geometry":{"type":"Point","coordinates":[-2.928776,43.2622441]}
	}
	,
	{"type":"Feature","properties":{
		"name":"BI-RUI-C020",
		"serialNumber":"233588181730096",
		"status":"2",
		"address":"Ledesma 10 bis",
		"deviceTypeId":"1",
		"longitude":"-2.928391",
		"latitude":"43.262172"
		},
	"geometry":{"type":"Point","coordinates":[-2.928391,43.2621721]}
	}
	,
	{"type":"Feature","properties":{
		"name":"BI-RUI-C021",
		"serialNumber":"31709406906816",
		"status":"2",
		"address":"Ledesma 30",
		"deviceTypeId":"1",
		"longitude":"-2.930848",
		"latitude":"43.262719"
		},
	"geometry":{"type":"Point","coordinates":[-2.930848,43.2627191]}
	}
	,
	{"type":"Feature","properties":{
		"name":"BI-RUI-C022",
		"serialNumber":"9579321264820",
		"status":"1",
		"address":"Villarias 2",
		"deviceTypeId":"1",
		"longitude":"-2.925193",
		"latitude":"43.261459"
		},
	"geometry":{"type":"Point","coordinates":[-2.925193,43.2614591]}
	}
	,
	{"type":"Feature","properties":{
		"name":"BI-RUI-C023",
		"serialNumber":"18439918662120",
		"status":"1",
		"address":"Botica Vieja  (TOYOTA)",
		"deviceTypeId":"1",
		"longitude":"-2.946357",
		"latitude":"43.268664"
		},
	"geometry":{"type":"Point","coordinates":[-2.946357,43.2686641]}
	}
	,
	{"type":"Feature","properties":{
		"name":"BI-RUI-C024",
		"serialNumber":"9381832634856",
		"status":"2",
		"address":"Avenida de las Universidades 8",
		"deviceTypeId":"1",
		"longitude":"-2.934714",
		"latitude":"43.270142"
		},
	"geometry":{"type":"Point","coordinates":[-2.934714,43.2701421]}
	}
	,
	{"type":"Feature","properties":{
		"name":"BI-RUI-C025",
		"serialNumber":"172577704980968",
		"status":"1",
		"address":"Luis Brinas con Pozas 5",
		"deviceTypeId":"1",
		"longitude":"-2.947089",
		"latitude":"43.263329"
		},
	"geometry":{"type":"Point","coordinates":[-2.947089,43.2633291]}
	}
	,
	{"type":"Feature","properties":{
		"name":"BI-RUI-C030",
		"serialNumber":"84327266426140",
		"status":"1",
		"address":"Egańa kalea 6",
		"deviceTypeId":"1",
		"longitude":"-2.93649",
		"latitude":"43.258043"
		},
	"geometry":{"type":"Point","coordinates":[-2.93649,43.2580431]}
	}
	,
	{"type":"Feature","properties":{
		"name":"BI-RUI-C031",
		"serialNumber":"110110000866724",
		"status":"1",
		"address":"Egańa kalea 2",
		"deviceTypeId":"1",
		"longitude":"-2.936177",
		"latitude":"43.257998"
		},
	"geometry":{"type":"Point","coordinates":[-2.936177,43.2579981]}
	}
	,
	{"type":"Feature","properties":{
		"name":"BI-RUI-C032",
		"serialNumber":"158638930152332",
		"status":"1",
		"address":"Particular Indautxu 3",
		"deviceTypeId":"1",
		"longitude":"-2.940836",
		"latitude":"43.261551"
		},
	"geometry":{"type":"Point","coordinates":[-2.940836,43.2615511]}
	}
	,
	{"type":"Feature","properties":{
		"name":"BI-RUI-C033",
		"serialNumber":"114731368900004",
		"status":"2",
		"address":"Maestro Garcia Rivero",
		"deviceTypeId":"1",
		"longitude":"-2.938913",
		"latitude":"43.26019"
		},
	"geometry":{"type":"Point","coordinates":[-2.9390283,43.2621941]}
	}
	,
	{"type":"Feature","properties":{
		"name":"BI-RUI-C034",
		"serialNumber":"22635509719416",
		"status":"1",
		"address":"Aretxabaleta 6",
		"deviceTypeId":"1",
		"longitude":"-2.941152",
		"latitude":"43.260501"
		},
	"geometry":{"type":"Point","coordinates":[-2.941152,43.2605011]}
	}
	,
	{"type":"Feature","properties":{
		"name":"BI-RUI-P001",
		"serialNumber":"53696331516452",
		"status":"1",
		"address":"PLAZA NUEVA 15",
		"deviceTypeId":"1",
		"longitude":"-2.922658",
		"latitude":"43.259361"
		},
	"geometry":{"type":"Point","coordinates":[-2.922658,43.2593611]}
	}
	,
	{"type":"Feature","properties":{
		"name":"BI-RUI-P002",
		"serialNumber":"13697301088804",
		"status":"2",
		"address":"PLAZA NUEVA (BALCÓN ASOCIACIÓN COMERCIANTES)",
		"deviceTypeId":"1",
		"longitude":"-2.922321",
		"latitude":"43.259093"
		},
	"geometry":{"type":"Point","coordinates":[-2.922321,43.2590931]}
	}
	,
	{"type":"Feature","properties":{
		"name":"BI-RUI-P003",
		"serialNumber":"145922164263460",
		"status":"1",
		"address":"PLAZA NUEVA 5",
		"deviceTypeId":"1",
		"longitude":"-2.922734",
		"latitude":"43.258821"
		},
	"geometry":{"type":"Point","coordinates":[-2.922734,43.2588211]}
	}
	,
	{"type":"Feature","properties":{
		"name":"BI-RUI-P004",
		"serialNumber":"211957269662244",
		"status":"1",
		"address":"PLAZA NUEVA 2",
		"deviceTypeId":"1",
		"longitude":"-2.923018",
		"latitude":"43.259105"
		},
	"geometry":{"type":"Point","coordinates":[-2.923018,43.2591051]}
	}
	,
	{"type":"Feature","properties":{
		"name":"BI-RUI-P005",
		"serialNumber":"215537962324300",
		"status":"1",
		"address":"AUTONOMÍA 33 (ESQUINA GORDÓNIZ)(CÁMARA TRÁFICO)",
		"deviceTypeId":"1",
		"longitude":"-2.941332",
		"latitude":"43.257536"
		},
	"geometry":{"type":"Point","coordinates":[-2.941332,43.2575361]}
	}
	,
	{"type":"Feature","properties":{
		"name":"BI-RUI-P006",
		"serialNumber":"35593044363812",
		"status":"1",
		"address":"JUAN DE GARAI (ROTONDA)(CÁMARA TRÁFICO)",
		"deviceTypeId":"1",
		"longitude":"-2.935071",
		"latitude":"43.25037"
		},
	"geometry":{"type":"Point","coordinates":[-2.935071,43.2503701]}
	}
	,
	{"type":"Feature","properties":{
		"name":"BI-RUI-P007",
		"serialNumber":"264832628820516",
		"status":"1",
		"address":"LEHENDAKARI AGUIRRE  20-26",
		"deviceTypeId":"1",
		"longitude":"-2.947327",
		"latitude":"43.272064"
		},
	"geometry":{"type":"Point","coordinates":[-2.947327,43.2720641]}
	}
	,
	{"type":"Feature","properties":{
		"name":"BI-RUI-P008",
		"serialNumber":"259557082141004",
		"status":"2",
		"address":"MAURICE RAVEL (CON SAN VALENTÍN BERRIOTXOA)",
		"deviceTypeId":"1",
		"longitude":"-2.917268",
		"latitude":"43.266914"
		},
	"geometry":{"type":"Point","coordinates":[-2.917268,43.2669141]}
	}
	,
	{"type":"Feature","properties":{
		"name":"BI-RUI-P009",
		"serialNumber":"180634089949732",
		"status":"1",
		"address":"ALAMEDA REKALDE 27",
		"deviceTypeId":"1",
		"longitude":"-2.934442",
		"latitude":"43.264067"
		},
	"geometry":{"type":"Point","coordinates":[-2.934442,43.2640671]}
	}
	,
	{"type":"Feature","properties":{
		"name":"BI-RUI-P010",
		"serialNumber":"106493020868940",
		"status":"1",
		"address":"FRAY JUAN 24",
		"deviceTypeId":"1",
		"longitude":"-2.974022",
		"latitude":"43.277335"
		},
	"geometry":{"type":"Point","coordinates":[-2.974022,43.2773351]}
	}
	,
	{"type":"Feature","properties":{
		"name":"BI-RUI-P011",
		"serialNumber":"193547729768780",
		"status":"1",
		"address":"CAMPO VOLANTÍN (CON MUGICA)(CÁMARA TRÁFICO)",
		"deviceTypeId":"1",
		"longitude":"-2.927817",
		"latitude":"43.267275"
		},
	"geometry":{"type":"Point","coordinates":[-2.927817,43.2672751]}
	}
	,
	{"type":"Feature","properties":{
		"name":"BI-RUI-P012",
		"serialNumber":"4474679464268",
		"status":"1",
		"address":"SANTUTXU (CON KARMELO 1)(CÁMARA TRÁFICO)",
		"deviceTypeId":"1",
		"longitude":"-2.915837",
		"latitude":"43.253675"
		},
	"geometry":{"type":"Point","coordinates":[-2.915837,43.2536751]}
	}
	,
	{"type":"Feature","properties":{
		"name":"BI-RUI-P013",
		"serialNumber":"263912178979148",
		"status":"1",
		"address":"GORDÓNIZ (CON GOYA)(CÁMARA TRÁFICO)",
		"deviceTypeId":"1",
		"longitude":"-2.946182",
		"latitude":"43.252719"
		},
	"geometry":{"type":"Point","coordinates":[-2.946182,43.2527191]}
	}
	,
	{"type":"Feature","properties":{
		"name":"BI-RUI-P014",
		"serialNumber":"110891067380044",
		"status":"1",
		"address":"MONTEVIDEO (FRENTE HOSPITAL)(CÁMARA TRÁFICO)",
		"deviceTypeId":"1",
		"longitude":"-2.954683",
		"latitude":"43.26077"
		},
	"geometry":{"type":"Point","coordinates":[-2.954683,43.2607701]}
	}
]}
